{"resourceType":"Location","id":"2b38f05a-19f4-4bb5-b0f7-3a7a7e3a8f28","meta":{"profile":["http://hl7.org/fhir/us/core/StructureDefinition/us-core-location"]},"status":"active","name":"LAHEY HOSPITAL & MEDICAL CENTER, BURLINGTON","telecom":[{"system":"phone","value":"7817445100"}],"address":{"line":["41 & 45 MALL ROAD"],"city":"BURLINGTON","state":"MA","postalCode":"01803","country":"US"},"position":{"longitude":-71.201713,"latitude":42.503227},"managingOrganization":{"reference":"Organization/6f122869-a856-3d65-8db9-099bf4f5bbb8","display":"LAHEY HOSPITAL & MEDICAL CENTER, BURLINGTON"}}
{"resourceType":"Location","id":"dd9c3142-2e59-4347-b4ae-461bbbf585af","meta":{"profile":["http://hl7.org/fhir/us/core/StructureDefinition/us-core-location"]},"status":"active","name":"PCP4047","telecom":[{"system":"phone","value":"781-878-6962"}],"address":{"line":["265 PLEASANT ST"],"city":"ROCKLAND","state":"MA","postalCode":"02370-1280","country":"US"},"position":{"longitude":-70.908736,"latitude":42.129251000000004},"managingOrganization":{"reference":"Organization/58fa71de-2295-33b8-8932-176a72078898","display":"PCP4047"}}
{"resourceType":"Location","id":"0f48d277-ecc9-4e75-9f0a-1eb90d1f8e3d","meta":{"profile":["http://hl7.org/fhir/us/core/StructureDefinition/us-core-location"]},"status":"active","name":"STURBRIDGE HUMAN SERVICES INC","telecom":[{"system":"phone","value":"508-347-7755"}],"address":{"line":["450 MAIN ST"],"city":"FISKDALE","state":"MA","postalCode":"01518-1296","country":"US"},"position":{"longitude":-72.110888,"latitude":42.124762},"managingOrganization":{"reference":"Organization/a3f3508a-4ed2-3a9e-8580-0d325e3d3457","display":"STURBRIDGE HUMAN SERVICES INC"}}
{"resourceType":"Location","id":"aaf55cfb-dfc8-4c81-b8f0-51d9e2ca8750","meta":{"profile":["http://hl7.org/fhir/us/core/StructureDefinition/us-core-location"]},"status":"active","name":"MORTON HOSPITAL","telecom":[{"system":"phone","value":"5088287000"}],"address":{"line":["88 WASHINGTON STREET"],"city":"TAUNTON","state":"MA","postalCode":"02780","country":"US"},"position":{"longitude":-71.094984,"latitude":41.903323},"managingOrganization":{"reference":"Organization/8ad64ecf-c817-3753-bee7-006a8e662e06","display":"MORTON HOSPITAL"}}
{"resourceType":"Location","id":"4c4a9ba8-8cde-4e3e-8b3b-f4220d85da84","meta":{"profile":["http://hl7.org/fhir/us/core/StructureDefinition/us-core-location"]},"status":"active","name":"PCP26008","telecom":[{"system":"phone","value":"508-677-1500"}],"address":{"line":["50 GAR HWY"],"city":"SWANSEA","state":"MA","postalCode":"02777-3215","country":"US"},"position":{"longitude":-71.21418100000001,"latitude":41.758163},"managingOrganization":{"reference":"Organization/ed76bd47-87ba-3948-9458-dd75d1a84d4d","display":"PCP26008"}}
{"resourceType":"Location","id":"2c179cde-999a-4fc3-bc91-05f48104cb63","meta":{"profile":["http://hl7.org/fhir/us/core/StructureDefinition/us-core-location"]},"status":"active","name":"PCP39516","telecom":[{"system":"phone","value":"508-295-2661"}],"address":{"line":["3003 CRANBERRY HWY B"],"city":"E WAREHAM","state":"MA","postalCode":"02538-1354","country":"US"},"position":{"longitude":-70.638745,"latitude":41.793699},"managingOrganization":{"reference":"Organization/819507f6-772a-3a2c-ac1d-d6b806531744","display":"PCP39516"}}
{"resourceType":"Location","id":"1dc6c262-9f81-4b56-b2a3-325e53046994","meta":{"profile":["http://hl7.org/fhir/us/core/StructureDefinition/us-core-location"]},"status":"active","name":"BEHAVIORAL HEALTH NETWORK INC","telecom":[{"system":"phone","value":"413-568-6141"}],"address":{"line":["77 MILL ST"],"city":"WESTFIELD","state":"MA","postalCode":"01085-4598","country":"US"},"position":{"longitude":-72.755911,"latitude":42.138838},"managingOrganization":{"reference":"Organization/72119645-cdcc-3b00-823a-b953c061348c","display":"BEHAVIORAL HEALTH NETWORK INC"}}
{"resourceType":"Location","id":"947d9ee5-4090-43b9-ba84-145ea4bd7494","meta":{"profile":["http://hl7.org/fhir/us/core/StructureDefinition/us-core-location"]},"status":"active","name":"MORTON HOSPITAL","telecom":[{"system":"phone","value":"5088287000"}],"address":{"line":["88 WASHINGTON STREET"],"city":"TAUNTON","state":"MA","postalCode":"02780","country":"US"},"position":{"longitude":-71.094984,"latitude":41.903323},"managingOrganization":{"reference":"Organization/8ad64ecf-c817-3753-bee7-006a8e662e06","display":"MORTON HOSPITAL"}}
{"resourceType":"Location","id":"69d668ce-6faf-452b-b29e-c0d9797448d5","meta":{"profile":["http://hl7.org/fhir/us/core/StructureDefinition/us-core-location"]},"status":"active","name":"PCP41867","telecom":[{"system":"phone","value":"781-273-0099"}],"address":{"line":["23 ADAMS ST"],"city":"BURLINGTON","state":"MA","postalCode":"01803-4916","country":"US"},"position":{"longitude":-71.201713,"latitude":42.503227},"managingOrganization":{"reference":"Organization/f5259ffd-9acb-3311-992a-a3cfea7195e3","display":"PCP41867"}}
{"resourceType":"Location","id":"73b55430-bd8d-4bbc-9898-e60e523a7b66","meta":{"profile":["http://hl7.org/fhir/us/core/StructureDefinition/us-core-location"]},"status":"active","name":"SOUTHCOAST HOSPITAL GROUP, INC","telecom":[{"system":"phone","value":"5086793131"}],"address":{"line":["363 HIGHLAND AVENUE"],"city":"FALL RIVER","state":"MA","postalCode":"02720","country":"US"},"position":{"longitude":-71.094162,"latitude":41.725351},"managingOrganization":{"reference":"Organization/23834663-ed53-3da9-b330-d6e1ecb8428e","display":"SOUTHCOAST HOSPITAL GROUP, INC"}}
{"resourceType":"Location","id":"edf556ba-bd57-4c2d-af38-65c7f0f2b3d4","meta":{"profile":["http://hl7.org/fhir/us/core/StructureDefinition/us-core-location"]},"status":"active","name":"PCP155636","telecom":[{"system":"phone","value":"(555) 555-5555"}],"address":{"line":["69 BAYVIEW AVE"],"city":"BERKLEY","state":"MA","postalCode":"02779-1924","country":"US"},"position":{"longitude":-71.07761500000001,"latitude":41.838060999999996},"managingOrganization":{"reference":"Organization/150d4bec-d11c-3014-8818-45127743725d","display":"PCP155636"}}
{"resourceType":"Location","id":"97812862-eea6-4430-9ad2-cd3884c7d212","meta":{"profile":["http://hl7.org/fhir/us/core/StructureDefinition/us-core-location"]},"status":"active","name":"NOBLE HOSPITAL","telecom":[{"system":"phone","value":"4135682811"}],"address":{"line":["115 WEST SILVER STREET"],"city":"WESTFIELD","state":"MA","postalCode":"01085","country":"US"},"position":{"longitude":-72.755911,"latitude":42.138838},"managingOrganization":{"reference":"Organization/ebc3f5c4-6700-34af-8323-85621c313726","display":"NOBLE HOSPITAL"}}
{"resourceType":"Location","id":"396aaf55-9601-482e-a494-d4e07d24faec","meta":{"profile":["http://hl7.org/fhir/us/core/StructureDefinition/us-core-location"]},"status":"active","name":"HARRINGTON MEMORIAL HOSPITAL-1","telecom":[{"system":"phone","value":"5087659771"}],"address":{"line":["100 SOUTH STREET"],"city":"SOUTHBRIDGE","state":"MA","postalCode":"01550","country":"US"},"position":{"longitude":-72.03404,"latitude":42.059669},"managingOrganization":{"reference":"Organization/4bdaa4c2-c664-3089-aee2-7137abbad27f","display":"HARRINGTON MEMORIAL HOSPITAL-1"}}
{"resourceType":"Location","id":"43785b1c-82f7-463b-9da0-d0a5bd641905","meta":{"profile":["http://hl7.org/fhir/us/core/StructureDefinition/us-core-location"]},"status":"active","name":"CAPE COD HOSPITAL","telecom":[{"system":"phone","value":"5087711800"}],"address":{"line":["88 LEWIS BAY ROAD"],"city":"HYANNIS","state":"MA","postalCode":"02601","country":"US"},"position":{"longitude":-70.74053599999998,"latitude":41.748854},"managingOrganization":{"reference":"Organization/ef6ab57c-ed94-3dbe-9861-812d515918b3","display":"CAPE COD HOSPITAL"}}
{"resourceType":"Location","id":"62fbaff2-fc01-430a-9dd5-f5f4e120f5bf","meta":{"profile":["http://hl7.org/fhir/us/core/StructureDefinition/us-core-location"]},"status":"active","name":"GOOD SAMARITAN MEDICAL CENTER","telecom":[{"system":"phone","value":"5084273000"}],"address":{"line":["235 NORTH PEARL STREET"],"city":"BROCKTON","state":"MA","postalCode":"02301","country":"US"},"position":{"longitude":-71.024638,"latitude":42.082543},"managingOrganization":{"reference":"Organization/226098a2-6a40-3588-b5bb-db56c3a30a04","display":"GOOD SAMARITAN MEDICAL CENTER"}}
{"resourceType":"Location","id":"0046309d-251d-45b8-8d7b-dbca1593211b","meta":{"profile":["http://hl7.org/fhir/us/core/StructureDefinition/us-core-location"]},"status":"active","name":"PCP258407","telecom":[{"system":"phone","value":"508-947-2155"}],"address":{"line":["98 S MAIN ST"],"city":"MIDDLEBOROUGH","state":"MA","postalCode":"02346-2123","country":"US"},"position":{"longitude":-70.86926700000001,"latitude":41.878004},"managingOrganization":{"reference":"Organization/18362426-1324-35e6-a226-adccb56a7a36","display":"PCP258407"}}
{"resourceType":"Location","id":"dce10f44-c62f-4e47-b591-ad155aa76082","meta":{"profile":["http://hl7.org/fhir/us/core/StructureDefinition/us-core-location"]},"status":"active","name":"CONCENTRA URGENT CARE - WILMINGTON","telecom":[{"system":"phone","value":"978-657-3826"}],"address":{"line":["66B CONCORD STREET"],"city":"WILMINGTON","state":"MA","postalCode":"1887","country":"US"},"position":{"longitude":-71.1368606,"latitude":42.5587666},"managingOrganization":{"reference":"Organization/a43fb751-96fe-3496-8750-73f85651866d","display":"CONCENTRA URGENT CARE - WILMINGTON"}}
{"resourceType":"Location","id":"0c4993e6-3b6c-4c27-b89e-a94d9a38e2b8","meta":{"profile":["http://hl7.org/fhir/us/core/StructureDefinition/us-core-location"]},"status":"active","name":"SAINT ANNE'S HOSPITAL","telecom":[{"system":"phone","value":"5086745600"}],"address":{"line":["795 MIDDLE STREET"],"city":"FALL RIVER","state":"MA","postalCode":"02721","country":"US"},"position":{"longitude":-71.094162,"latitude":41.725351},"managingOrganization":{"reference":"Organization/ecc51621-0af3-3b35-ac3e-8b1e34022e92","display":"SAINT ANNE'S HOSPITAL"}}
{"resourceType":"Location","id":"3aa85fc4-4579-46e1-943c-f6566b9da902","meta":{"profile":["http://hl7.org/fhir/us/core/StructureDefinition/us-core-location"]},"status":"active","name":"ROUTE 44 MEDICAL WALK-IN","telecom":[{"system":"phone","value":"508-824-1476"}],"address":{"line":["106 UNITED STATES HIGHWAY 44"],"city":"RAYNHAM","state":"MA","postalCode":"2767","country":"US"},"position":{"longitude":-71.0609995,"latitude":41.9051941},"managingOrganization":{"reference":"Organization/700056a6-3aea-3efd-8423-a9acbd38a5ea","display":"ROUTE 44 MEDICAL WALK-IN"}}
{"resourceType":"Location","id":"aa22a4c0-3869-4742-a6e9-b779d67e7605","meta":{"profile":["http://hl7.org/fhir/us/core/StructureDefinition/us-core-location"]},"status":"active","name":"PCP161669","telecom":[{"system":"phone","value":"(555) 555-5555"}],"address":{"line":["194 CENTRAL ST"],"city":"SAUGUS","state":"MA","postalCode":"01906-2107","country":"US"},"position":{"longitude":-71.01394599999999,"latitude":42.468432},"managingOrganization":{"reference":"Organization/219754e0-e530-3e9d-a496-987d1d7c8705","display":"PCP161669"}}
{"resourceType":"Location","id":"95fd9b7a-d38a-4cb5-9e78-3e1d62c92b61","meta":{"profile":["http://hl7.org/fhir/us/core/StructureDefinition/us-core-location"]},"status":"active","name":"LAWRENCE ANESTHESIA SERVICES, LLC","telecom":[{"system":"phone","value":"978-683-4000"}],"address":{"line":["1 GENERAL ST"],"city":"LAWRENCE","state":"MA","postalCode":"01841-2961","country":"US"},"position":{"longitude":-71.161357,"latitude":42.700272999999996},"managingOrganization":{"reference":"Organization/b6135f2a-c75a-3093-b4d9-db7ff10b4231","display":"LAWRENCE ANESTHESIA SERVICES, LLC"}}
{"resourceType":"Location","id":"dd7d9370-ed35-4288-903c-4001910afd3f","meta":{"profile":["http://hl7.org/fhir/us/core/StructureDefinition/us-core-location"]},"status":"active","name":"ROUTE 6 WALK IN EMERGENCY OFFICE","telecom":[{"system":"phone","value":"508-336-4550"}],"address":{"line":["1589 FALL RIVER AVENUE"],"city":"SEEKONK","state":"MA","postalCode":"2771","country":"US"},"position":{"longitude":-71.3116365,"latitude":41.7847869},"managingOrganization":{"reference":"Organization/ad933cee-594c-3f13-b6ef-20f89ecd91ff","display":"ROUTE 6 WALK IN EMERGENCY OFFICE"}}
{"resourceType":"Location","id":"7e83f541-3131-4a44-8501-ea6ea7e4f8a8","meta":{"profile":["http://hl7.org/fhir/us/core/StructureDefinition/us-core-location"]},"status":"active","name":"PCP105118","telecom":[{"system":"phone","value":"(555) 555-5555"}],"address":{"line":["121 NANTASKET AVE"],"city":"HULL","state":"MA","postalCode":"02045-3106","country":"US"},"position":{"longitude":-70.883301,"latitude":42.340233000000005},"managingOrganization":{"reference":"Organization/9098c4b0-6b32-35c8-8094-9adb8dce7390","display":"PCP105118"}}
{"resourceType":"Location","id":"689df551-776d-41e3-870c-b1a1ace5ef77","meta":{"profile":["http://hl7.org/fhir/us/core/StructureDefinition/us-core-location"]},"status":"active","name":"HALLMARK HEALTH SYSTEM","telecom":[{"system":"phone","value":"7819793000"}],"address":{"line":["585 LEBANON STREET"],"city":"MELROSE","state":"MA","postalCode":"02176","country":"US"},"position":{"longitude":-71.05901899999998,"latitude":42.455723},"managingOrganization":{"reference":"Organization/d692e283-0833-3201-8e55-4f868a9c0736","display":"HALLMARK HEALTH SYSTEM"}}
{"resourceType":"Location","id":"c82614ff-008d-4cfb-a359-aea0f9aa254e","meta":{"profile":["http://hl7.org/fhir/us/core/StructureDefinition/us-core-location"]},"status":"active","name":"PCP155388","telecom":[{"system":"phone","value":"(555) 555-5555"}],"address":{"line":["89 SHARON ST"],"city":"STOUGHTON","state":"MA","postalCode":"02072-2011","country":"US"},"position":{"longitude":-71.10365,"latitude":42.119006},"managingOrganization":{"reference":"Organization/f017cfb0-99ed-3c5b-b98a-9356bda3de8a","display":"PCP155388"}}
{"resourceType":"Location","id":"45eb65d1-af85-4b2d-b251-3b3cf4f96dbe","meta":{"profile":["http://hl7.org/fhir/us/core/StructureDefinition/us-core-location"]},"status":"active","name":"LAWRENCE GENERAL HOSPITAL","telecom":[{"system":"phone","value":"9786834000"}],"address":{"line":["ONE GENERAL STREET"],"city":"LAWRENCE","state":"MA","postalCode":"01842","country":"US"},"position":{"longitude":-71.161357,"latitude":42.700273},"managingOrganization":{"reference":"Organization/f1fbcbfb-fcfa-3bd2-b7f4-df20f1b3c3a4","display":"LAWRENCE GENERAL HOSPITAL"}}
{"resourceType":"Location","id":"dec7ea37-df39-4257-9129-83e84cf7649d","meta":{"profile":["http://hl7.org/fhir/us/core/StructureDefinition/us-core-location"]},"status":"active","name":"CARNEY HOSPITAL","telecom":[{"system":"phone","value":"6175062000"}],"address":{"line":["2100 DORCHESTER AVENUE"],"city":"BOSTON","state":"MA","postalCode":"02124","country":"US"},"position":{"longitude":-71.020173,"latitude":42.33196},"managingOrganization":{"reference":"Organization/8b58cdd1-3d79-3126-8fe0-da2c54d6805c","display":"CARNEY HOSPITAL"}}
{"resourceType":"Location","id":"46513897-a073-4cca-8f7c-d481582785ef","meta":{"profile":["http://hl7.org/fhir/us/core/StructureDefinition/us-core-location"]},"status":"active","name":"CONCENTRA URGENT CARE - EAST BOSTON","telecom":[{"system":"phone","value":"617-568-6500"}],"address":{"line":["1 HARBORSIDE DRIVE"],"city":"EAST BOSTON","state":"MA","postalCode":"2128","country":"US"},"position":{"longitude":-71.0256963,"latitude":42.3634497},"managingOrganization":{"reference":"Organization/0f7f97f6-693c-3de9-8190-85feaf4632e2","display":"CONCENTRA URGENT CARE - EAST BOSTON"}}
{"resourceType":"Location","id":"20cb801a-f7ce-4dfe-a82c-ba715ecb4075","meta":{"profile":["http://hl7.org/fhir/us/core/StructureDefinition/us-core-location"]},"status":"active","name":"NEW ENGLAND BAPTIST HOSPITAL","telecom":[{"system":"phone","value":"6177545800"}],"address":{"line":["125 PARKER HILL AVENUE"],"city":"BOSTON","state":"MA","postalCode":"02120","country":"US"},"position":{"longitude":-71.020173,"latitude":42.33196},"managingOrganization":{"reference":"Organization/9a7149fa-49fc-3c87-b935-d29c55808717","display":"NEW ENGLAND BAPTIST HOSPITAL"}}
{"resourceType":"Location","id":"4a607608-6994-43d2-bb69-410629373bac","meta":{"profile":["http://hl7.org/fhir/us/core/StructureDefinition/us-core-location"]},"status":"active","name":"PCP116153","telecom":[{"system":"phone","value":"508-954-2372"}],"address":{"line":["100 COPELAND DR"],"city":"MANSFIELD","state":"MA","postalCode":"02048-1245","country":"US"},"position":{"longitude":-71.21641,"latitude":42.017302},"managingOrganization":{"reference":"Organization/2081b743-fb07-3f55-a1f0-1d4334fbb37d","display":"PCP116153"}}
{"resourceType":"Location","id":"65e8bed6-1b17-40fb-9057-88bd24f854fb","meta":{"profile":["http://hl7.org/fhir/us/core/StructureDefinition/us-core-location"]},"status":"active","name":"SIGNATURE HEALTHCARE BROCKTON HOSPITAL","telecom":[{"system":"phone","value":"5089417000"}],"address":{"line":["680 CENTER STREET"],"city":"BROCKTON","state":"MA","postalCode":"02302","country":"US"},"position":{"longitude":-71.024638,"latitude":42.082543},"managingOrganization":{"reference":"Organization/c44f361c-2efb-3050-8f97-0354a12e2920","display":"SIGNATURE HEALTHCARE BROCKTON HOSPITAL"}}
{"resourceType":"Location","id":"12c777cb-5aa8-4383-b05b-c55c641d0ef6","meta":{"profile":["http://hl7.org/fhir/us/core/StructureDefinition/us-core-location"]},"status":"active","name":"FALMOUTH HOSPITAL","telecom":[{"system":"phone","value":"5085485300"}],"address":{"line":["67 & 100 TER HEUN DRIVE"],"city":"FALMOUTH","state":"MA","postalCode":"02540","country":"US"},"position":{"longitude":-70.556682,"latitude":41.57072},"managingOrganization":{"reference":"Organization/d5117822-5756-389d-9547-891a372d580f","display":"FALMOUTH HOSPITAL"}}
{"resourceType":"Location","id":"2a3d14a2-ae3e-4def-b6bf-c2f23b79dfef","meta":{"profile":["http://hl7.org/fhir/us/core/StructureDefinition/us-core-location"]},"status":"active","name":"PCP180302","telecom":[{"system":"phone","value":"978-660-2567"}],"address":{"line":["71 MAIN ST"],"city":"WESTMINSTER","state":"MA","postalCode":"01473-1472","country":"US"},"position":{"longitude":-71.90544,"latitude":42.5546},"managingOrganization":{"reference":"Organization/cca20645-6ff2-372f-9fb3-63842ea37716","display":"PCP180302"}}
{"resourceType":"Location","id":"e770a23c-51f3-42ef-85d6-d13916dad219","meta":{"profile":["http://hl7.org/fhir/us/core/StructureDefinition/us-core-location"]},"status":"active","name":"PCP3289","telecom":[{"system":"phone","value":"978-774-0500"}],"address":{"line":["89 NEWBURY ST"],"city":"DANVERS","state":"MA","postalCode":"01923-1098","country":"US"},"position":{"longitude":-70.95051600000001,"latitude":42.574174},"managingOrganization":{"reference":"Organization/8c714091-3193-3cd0-8bac-386b83984962","display":"PCP3289"}}
{"resourceType":"Location","id":"4a12bad5-b7a7-4865-82a2-aec649094282","meta":{"profile":["http://hl7.org/fhir/us/core/StructureDefinition/us-core-location"]},"status":"active","name":"STURDY MEMORIAL HOSPITAL","telecom":[{"system":"phone","value":"5082225200"}],"address":{"line":["211 PARK STREET"],"city":"ATTLEBORO","state":"MA","postalCode":"02703","country":"US"},"position":{"longitude":-71.294503,"latitude":41.931653},"managingOrganization":{"reference":"Organization/5e765f2b-e908-3888-9fc7-df2cb87beb58","display":"STURDY MEMORIAL HOSPITAL"}}
{"resourceType":"Location","id":"6b48b24a-5b07-4e49-bfbc-1ed8e2f4f36b","meta":{"profile":["http://hl7.org/fhir/us/core/StructureDefinition/us-core-location"]},"status":"active","name":"TAUNTON WALK IN HEALTH CLINIC","telecom":[{"system":"phone","value":"508-822-2311"}],"address":{"line":["58 TREMONT STREET"],"city":"TAUNTON","state":"MA","postalCode":"2780","country":"US"},"position":{"longitude":-71.106073,"latitude":41.9048719},"managingOrganization":{"reference":"Organization/eeca3319-9cbf-382e-a7ee-43986c981135","display":"TAUNTON WALK IN HEALTH CLINIC"}}
{"resourceType":"Location","id":"4cff332f-1447-4e4f-9093-d6574d11f90f","meta":{"profile":["http://hl7.org/fhir/us/core/StructureDefinition/us-core-location"]},"status":"active","name":"PCP21151","telecom":[{"system":"phone","value":"617-945-5036"}],"address":{"line":["678 MASSACHUSETTS AVE"],"city":"CAMBRIDGE","state":"MA","postalCode":"02139-3355","country":"US"},"position":{"longitude":-71.11868,"latitude":42.376043},"managingOrganization":{"reference":"Organization/26f2f849-9fb1-3c4a-9aed-a804458a72cb","display":"PCP21151"}}
{"resourceType":"Location","id":"ca6adeb2-5bdc-4c07-82d6-a896bdb4a14c","meta":{"profile":["http://hl7.org/fhir/us/core/StructureDefinition/us-core-location"]},"status":"active","name":"CARROLL PHYSICAL THERAPY","telecom":[{"system":"phone","value":"508-420-3535"}],"address":{"line":["1284 MAIN ST"],"city":"OSTERVILLE","state":"MA","postalCode":"02655-1542","country":"US"},"position":{"longitude":-70.357208,"latitude":41.662727},"managingOrganization":{"reference":"Organization/c70cfaad-1251-3193-9495-060db784e090","display":"CARROLL PHYSICAL THERAPY"}}
{"resourceType":"Location","id":"b90fe67c-69aa-4ac3-82f4-507f9a144b33","meta":{"profile":["http://hl7.org/fhir/us/core/StructureDefinition/us-core-location"]},"status":"active","name":"FALMOUTH HOSPITAL","telecom":[{"system":"phone","value":"5085485300"}],"address":{"line":["67 & 100 TER HEUN DRIVE"],"city":"FALMOUTH","state":"MA","postalCode":"02540","country":"US"},"position":{"longitude":-70.556682,"latitude":41.57072},"managingOrganization":{"reference":"Organization/d5117822-5756-389d-9547-891a372d580f","display":"FALMOUTH HOSPITAL"}}
{"resourceType":"Location","id":"bf0b8fce-b7db-4a39-9750-fd0054386bd0","meta":{"profile":["http://hl7.org/fhir/us/core/StructureDefinition/us-core-location"]},"status":"active","name":"HEYWOOD HOSPITAL -","telecom":[{"system":"phone","value":"9786323420"}],"address":{"line":["242 GREEN STREET"],"city":"GARDNER","state":"MA","postalCode":"01440","country":"US"},"position":{"longitude":-71.988062,"latitude":42.586516},"managingOrganization":{"reference":"Organization/e44f438a-601b-30fb-85eb-bfaf8ddcb5ad","display":"HEYWOOD HOSPITAL -"}}
{"resourceType":"Location","id":"64766c8e-4056-45e3-ab6f-210975ef79f7","meta":{"profile":["http://hl7.org/fhir/us/core/StructureDefinition/us-core-location"]},"status":"active","name":"NORTHEAST BEHAVIORAL HEALTH CORPORATION","telecom":[{"system":"phone","value":"978-745-2440"}],"address":{"line":["41 MASON ST"],"city":"SALEM","state":"MA","postalCode":"01970-2260","country":"US"},"position":{"longitude":-70.898204,"latitude":42.499248},"managingOrganization":{"reference":"Organization/3b68d570-c98b-3223-a4c0-8829efd25b50","display":"NORTHEAST BEHAVIORAL HEALTH CORPORATION"}}
{"resourceType":"Location","id":"cff531f9-1857-46c7-9f00-0910ef72bbbd","meta":{"profile":["http://hl7.org/fhir/us/core/StructureDefinition/us-core-location"]},"status":"active","name":"NORTH SHORE MEDICAL CENTER -","telecom":[{"system":"phone","value":"9787411215"}],"address":{"line":["81 HIGHLAND AVENUE"],"city":"SALEM","state":"MA","postalCode":"01970","country":"US"},"position":{"longitude":-70.897502,"latitude":42.50128},"managingOrganization":{"reference":"Organization/4861d01f-019c-3dac-a153-8334e50919f9","display":"NORTH SHORE MEDICAL CENTER -"}}
{"resourceType":"Location","id":"95d60194-f8a9-4c76-a25c-128047e3c670","meta":{"profile":["http://hl7.org/fhir/us/core/StructureDefinition/us-core-location"]},"status":"active","name":"PCP5655","telecom":[{"system":"phone","value":"508-362-5080"}],"address":{"line":["923 ROUTE 6A T"],"city":"YARMOUTH PORT","state":"MA","postalCode":"02675-2159","country":"US"},"position":{"longitude":-70.221117,"latitude":41.706920000000004},"managingOrganization":{"reference":"Organization/6fca7f82-5436-395c-b7d5-df9438fb4b2e","display":"PCP5655"}}
{"resourceType":"Location","id":"831defe9-999b-493d-bb82-f7cd65188f12","meta":{"profile":["http://hl7.org/fhir/us/core/StructureDefinition/us-core-location"]},"status":"active","name":"CAMBRIDGE HEALTH ALLIANCE","telecom":[{"system":"phone","value":"6176652300"}],"address":{"line":["1493 CAMBRIDGE STREET"],"city":"CAMBRIDGE","state":"MA","postalCode":"02138","country":"US"},"position":{"longitude":-71.118275,"latitude":42.375967},"managingOrganization":{"reference":"Organization/e002090d-4e92-300e-b41e-7d1f21dee4c6","display":"CAMBRIDGE HEALTH ALLIANCE"}}
{"resourceType":"Location","id":"2aab6c80-e413-4acc-b9b8-cc00e3e494c6","meta":{"profile":["http://hl7.org/fhir/us/core/StructureDefinition/us-core-location"]},"status":"active","name":"MOUNT AUBURN HOSPITAL","telecom":[{"system":"phone","value":"6174923500"}],"address":{"line":["330 MOUNT AUBURN STREET"],"city":"CAMBRIDGE","state":"MA","postalCode":"02138","country":"US"},"position":{"longitude":-71.118275,"latitude":42.375967},"managingOrganization":{"reference":"Organization/69176529-fd1f-3b3f-abce-a0a3626769eb","display":"MOUNT AUBURN HOSPITAL"}}
{"resourceType":"Location","id":"d9f35677-e941-418e-9b88-46afb47727c9","meta":{"profile":["http://hl7.org/fhir/us/core/StructureDefinition/us-core-location"]},"status":"active","name":"STURBRIDGE HUMAN SERVICES INC","telecom":[{"system":"phone","value":"508-347-7755"}],"address":{"line":["450 MAIN ST"],"city":"FISKDALE","state":"MA","postalCode":"01518-1296","country":"US"},"position":{"longitude":-72.110888,"latitude":42.124762},"managingOrganization":{"reference":"Organization/a3f3508a-4ed2-3a9e-8580-0d325e3d3457","display":"STURBRIDGE HUMAN SERVICES INC"}}
{"resourceType":"Location","id":"9b4b8564-43aa-4277-9161-72d39c4f9e4f","meta":{"profile":["http://hl7.org/fhir/us/core/StructureDefinition/us-core-location"]},"status":"active","name":"NORTH SHORE MEDICAL CENTER -","telecom":[{"system":"phone","value":"9787411215"}],"address":{"line":["81 HIGHLAND AVENUE"],"city":"SALEM","state":"MA","postalCode":"01970","country":"US"},"position":{"longitude":-70.897502,"latitude":42.50128},"managingOrganization":{"reference":"Organization/4861d01f-019c-3dac-a153-8334e50919f9","display":"NORTH SHORE MEDICAL CENTER -"}}
{"resourceType":"Location","id":"4f27e0ea-e260-4b26-96bc-57cd9ebea3f4","meta":{"profile":["http://hl7.org/fhir/us/core/StructureDefinition/us-core-location"]},"status":"active","name":"MORTON HOSPITAL","telecom":[{"system":"phone","value":"5088287000"}],"address":{"line":["88 WASHINGTON STREET"],"city":"TAUNTON","state":"MA","postalCode":"02780","country":"US"},"position":{"longitude":-71.094984,"latitude":41.903323},"managingOrganization":{"reference":"Organization/8ad64ecf-c817-3753-bee7-006a8e662e06","display":"MORTON HOSPITAL"}}
{"resourceType":"Location","id":"55d05302-e5f6-44a0-ad2e-bb9a331e75a8","meta":{"profile":["http://hl7.org/fhir/us/core/StructureDefinition/us-core-location"]},"status":"active","name":"BAYSTATE WING HOSPITAL AND MEDICAL CENTERS","telecom":[{"system":"phone","value":"4132837651"}],"address":{"line":["40 WRIGHT STREET"],"city":"PALMER","state":"MA","postalCode":"01069","country":"US"},"position":{"longitude":-72.30846899999997,"latitude":42.187794},"managingOrganization":{"reference":"Organization/5844ad77-f653-3c2b-b7dd-e97576ab3b03","display":"BAYSTATE WING HOSPITAL AND MEDICAL CENTERS"}}
{"resourceType":"Location","id":"07a124c2-f03a-4958-94ed-ee4db0a0034b","meta":{"profile":["http://hl7.org/fhir/us/core/StructureDefinition/us-core-location"]},"status":"active","name":"PCP46837","telecom":[{"system":"phone","value":"508-752-4709"}],"address":{"line":["61 MAIN ST"],"city":"BLACKSTONE","state":"MA","postalCode":"01504-2215","country":"US"},"position":{"longitude":-71.53240600000001,"latitude":42.039991},"managingOrganization":{"reference":"Organization/c9c9bbf0-c1c0-30fe-94d3-a908a24ebb48","display":"PCP46837"}}
{"resourceType":"Location","id":"9e1bf6f9-c568-4580-92c8-49fa20f97402","meta":{"profile":["http://hl7.org/fhir/us/core/StructureDefinition/us-core-location"]},"status":"active","name":"PCP15541","telecom":[{"system":"phone","value":"508-285-3370"}],"address":{"line":["35 BURT ST"],"city":"NORTON","state":"MA","postalCode":"02766-2569","country":"US"},"position":{"longitude":-71.18178,"latitude":41.965340999999995},"managingOrganization":{"reference":"Organization/ff917dd4-ffbb-3f4c-b2df-445a7e9d29aa","display":"PCP15541"}}
{"resourceType":"Location","id":"9825860a-d860-43bb-9099-30f65a99ceea","meta":{"profile":["http://hl7.org/fhir/us/core/StructureDefinition/us-core-location"]},"status":"active","name":"MILFORD REGIONAL MEDICAL CENTER","telecom":[{"system":"phone","value":"5084731190"}],"address":{"line":["14 PROSPECT STREET"],"city":"MILFORD","state":"MA","postalCode":"01757","country":"US"},"position":{"longitude":-71.521419,"latitude":42.158692},"managingOrganization":{"reference":"Organization/24cb4eab-6166-3530-bddc-a5a8a14a4fc1","display":"MILFORD REGIONAL MEDICAL CENTER"}}
{"resourceType":"Location","id":"a01d663b-3802-49ba-850b-ded23b176940","meta":{"profile":["http://hl7.org/fhir/us/core/StructureDefinition/us-core-location"]},"status":"active","name":"PCP116564","telecom":[{"system":"phone","value":"508-867-6161"}],"address":{"line":["143 W MAIN ST"],"city":"WEST BROOKFIELD","state":"MA","postalCode":"01585-2812","country":"US"},"position":{"longitude":-72.158169,"latitude":42.256691},"managingOrganization":{"reference":"Organization/c9216d86-bc94-32af-98e6-3efe8e0bb31b","display":"PCP116564"}}
{"resourceType":"Location","id":"672db7c3-0845-4d8d-8a24-c75b1959b9ab","meta":{"profile":["http://hl7.org/fhir/us/core/StructureDefinition/us-core-location"]},"status":"active","name":"GENERAL HEALTH CARE","telecom":[{"system":"phone","value":"508-643-0100"}],"address":{"line":["66 SOUTH WASHINGTON STREET"],"city":"NORTH ATTLEBORO","state":"MA","postalCode":"2760","country":"US"},"position":{"longitude":-71.3329695,"latitude":41.9799756},"managingOrganization":{"reference":"Organization/b06770b5-b695-3c1a-9685-ae2223966ff7","display":"GENERAL HEALTH CARE"}}
{"resourceType":"Location","id":"9cc3c741-e2bd-454b-a3e7-301a712a9696","meta":{"profile":["http://hl7.org/fhir/us/core/StructureDefinition/us-core-location"]},"status":"active","name":"BAYSTATE WING HOSPITAL AND MEDICAL CENTERS","telecom":[{"system":"phone","value":"4132837651"}],"address":{"line":["40 WRIGHT STREET"],"city":"PALMER","state":"MA","postalCode":"01069","country":"US"},"position":{"longitude":-72.30846899999997,"latitude":42.187794},"managingOrganization":{"reference":"Organization/5844ad77-f653-3c2b-b7dd-e97576ab3b03","display":"BAYSTATE WING HOSPITAL AND MEDICAL CENTERS"}}
{"resourceType":"Location","id":"b2369cf3-c9a3-431e-9e6c-9806f63eb66c","meta":{"profile":["http://hl7.org/fhir/us/core/StructureDefinition/us-core-location"]},"status":"active","name":"FAMILY HEALTH CENTER","telecom":[{"system":"phone","value":"508-860-7777"}],"address":{"line":["26 QUEEN STREET"],"city":"WORCESTER","state":"MA","postalCode":"1610","country":"US"},"position":{"longitude":-71.8139319,"latitude":42.2590345},"managingOrganization":{"reference":"Organization/cbbee84d-7644-3b24-9f41-e3747f5050df","display":"FAMILY HEALTH CENTER"}}
{"resourceType":"Location","id":"f9441c60-f15e-49ca-ab37-877f392dbaba","meta":{"profile":["http://hl7.org/fhir/us/core/StructureDefinition/us-core-location"]},"status":"active","name":"NEW ENGLAND COMMUNITY MEDICAL SERVICES PLLC","telecom":[{"system":"phone","value":"617-566-1700"}],"address":{"line":["50 SUTHERLAND RD"],"city":"BRIGHTON","state":"MA","postalCode":"02135-7132","country":"US"},"position":{"longitude":-71.020173,"latitude":42.33196},"managingOrganization":{"reference":"Organization/5f30b2e2-1983-39be-b08f-2ee89cade148","display":"NEW ENGLAND COMMUNITY MEDICAL SERVICES PLLC"}}
{"resourceType":"Location","id":"784101e7-63da-446c-ab3f-29fb36dca4f8","meta":{"profile":["http://hl7.org/fhir/us/core/StructureDefinition/us-core-location"]},"status":"active","name":"MID CAPE MEDICAL CENTER","telecom":[{"system":"phone","value":"508-771-4092"}],"address":{"line":["489 BEARSES WAY"],"city":"HYANNIS","state":"MA","postalCode":"2601","country":"US"},"position":{"longitude":-70.3008223,"latitude":41.6624796},"managingOrganization":{"reference":"Organization/df5a38ee-e493-3572-8f92-bb695aef9891","display":"MID CAPE MEDICAL CENTER"}}
{"resourceType":"Location","id":"9b75f8b3-f4dc-4704-8c5e-2fa309476705","meta":{"profile":["http://hl7.org/fhir/us/core/StructureDefinition/us-core-location"]},"status":"active","name":"CAMBRIDGE HEALTH ALLIANCE","telecom":[{"system":"phone","value":"6176652300"}],"address":{"line":["1493 CAMBRIDGE STREET"],"city":"CAMBRIDGE","state":"MA","postalCode":"02138","country":"US"},"position":{"longitude":-71.118275,"latitude":42.375967},"managingOrganization":{"reference":"Organization/e002090d-4e92-300e-b41e-7d1f21dee4c6","display":"CAMBRIDGE HEALTH ALLIANCE"}}
{"resourceType":"Location","id":"f65c966f-2880-4df8-a1c1-efb5adb7c9f9","meta":{"profile":["http://hl7.org/fhir/us/core/StructureDefinition/us-core-location"]},"status":"active","name":"TUFTS MEDICAL CENTER","telecom":[{"system":"phone","value":"6176365000"}],"address":{"line":["800 WASHINGTON STREET"],"city":"BOSTON","state":"MA","postalCode":"02111","country":"US"},"position":{"longitude":-71.020173,"latitude":42.33196},"managingOrganization":{"reference":"Organization/b7175ab4-bde5-3848-891b-579bccb77c7c","display":"TUFTS MEDICAL CENTER"}}
{"resourceType":"Location","id":"92050219-e1eb-461f-b119-503e3e8263ec","meta":{"profile":["http://hl7.org/fhir/us/core/StructureDefinition/us-core-location"]},"status":"active","name":"BRIGHAM AND WOMEN'S HOSPITAL","telecom":[{"system":"phone","value":"6177325500"}],"address":{"line":["75 FRANCIS STREET"],"city":"BOSTON","state":"MA","postalCode":"02115","country":"US"},"position":{"longitude":-71.020173,"latitude":42.33196},"managingOrganization":{"reference":"Organization/27379046-608b-32f0-9df7-8c833cf5d11d","display":"BRIGHAM AND WOMEN'S HOSPITAL"}}
{"resourceType":"Location","id":"c8e581f6-6b63-49e0-8cbd-f82e9380c021","meta":{"profile":["http://hl7.org/fhir/us/core/StructureDefinition/us-core-location"]},"status":"active","name":"JASON M GILBERT MD PC","telecom":[{"system":"phone","value":"781-395-9916"}],"address":{"line":["101 MAIN ST"],"city":"MEDFORD","state":"MA","postalCode":"02155-4530","country":"US"},"position":{"longitude":-71.10923100000001,"latitude":42.423844},"managingOrganization":{"reference":"Organization/96b62d65-9150-3723-b904-808d4a94d2f0","display":"JASON M GILBERT MD PC"}}
{"resourceType":"Location","id":"23a38556-9f4e-4f44-bb63-a2fe938f459c","meta":{"profile":["http://hl7.org/fhir/us/core/StructureDefinition/us-core-location"]},"status":"active","name":"BRIGHAM AND WOMEN'S FAULKNER HOSPITAL","telecom":[{"system":"phone","value":"6179837000"}],"address":{"line":["1153 CENTRE STREET"],"city":"BOSTON","state":"MA","postalCode":"02130","country":"US"},"position":{"longitude":-71.020173,"latitude":42.33196},"managingOrganization":{"reference":"Organization/d733d4a9-080d-3593-b910-2366e652b7ea","display":"BRIGHAM AND WOMEN'S FAULKNER HOSPITAL"}}
{"resourceType":"Location","id":"aac72f56-c2c6-4104-b447-7f8de702fab5","meta":{"profile":["http://hl7.org/fhir/us/core/StructureDefinition/us-core-location"]},"status":"active","name":"MOUNT AUBURN HOSPITAL","telecom":[{"system":"phone","value":"6174923500"}],"address":{"line":["330 MOUNT AUBURN STREET"],"city":"CAMBRIDGE","state":"MA","postalCode":"02138","country":"US"},"position":{"longitude":-71.118275,"latitude":42.375967},"managingOrganization":{"reference":"Organization/69176529-fd1f-3b3f-abce-a0a3626769eb","display":"MOUNT AUBURN HOSPITAL"}}
{"resourceType":"Location","id":"3f30531c-1e42-49ff-8a7a-9ae7fae0e3b5","meta":{"profile":["http://hl7.org/fhir/us/core/StructureDefinition/us-core-location"]},"status":"active","name":"SOUTH SHORE RADIOLOGICAL ASSOCIATES, INC.","telecom":[{"system":"phone","value":"781-340-0154"}],"address":{"line":["26 ROCKWAY AVE"],"city":"WEYMOUTH","state":"MA","postalCode":"02188-3906","country":"US"},"position":{"longitude":-70.94584499999998,"latitude":42.206676},"managingOrganization":{"reference":"Organization/9bb1f5c1-3cf0-312d-a22a-b9895a960bb5","display":"SOUTH SHORE RADIOLOGICAL ASSOCIATES, INC."}}
{"resourceType":"Location","id":"0bd7ee5d-26ec-496a-8459-2bd02f84174e","meta":{"profile":["http://hl7.org/fhir/us/core/StructureDefinition/us-core-location"]},"status":"active","name":"GOOD SAMARITAN MEDICAL CENTER","telecom":[{"system":"phone","value":"5084273000"}],"address":{"line":["235 NORTH PEARL STREET"],"city":"BROCKTON","state":"MA","postalCode":"02301","country":"US"},"position":{"longitude":-71.024638,"latitude":42.082543},"managingOrganization":{"reference":"Organization/226098a2-6a40-3588-b5bb-db56c3a30a04","display":"GOOD SAMARITAN MEDICAL CENTER"}}
{"resourceType":"Location","id":"149827d6-281c-455c-9a53-8d42fa2001a8","meta":{"profile":["http://hl7.org/fhir/us/core/StructureDefinition/us-core-location"]},"status":"active","name":"HARVARD VANGUARD BRAINTREE PRACTICE URGENT CARE","telecom":[{"system":"phone","value":"781-849-1000"}],"address":{"line":["111 GROSSMAN DRIVE"],"city":"BRAINTREE","state":"MA","postalCode":"2184","country":"US"},"position":{"longitude":-70.999539,"latitude":42.21004},"managingOrganization":{"reference":"Organization/c63d0602-724d-3d74-958a-a31b1364eaef","display":"HARVARD VANGUARD BRAINTREE PRACTICE URGENT CARE"}}
{"resourceType":"Location","id":"ae951fd3-b525-4360-bf94-25762813a380","meta":{"profile":["http://hl7.org/fhir/us/core/StructureDefinition/us-core-location"]},"status":"active","name":"SIGNATURE HEALTHCARE BROCKTON HOSPITAL","telecom":[{"system":"phone","value":"5089417000"}],"address":{"line":["680 CENTER STREET"],"city":"BROCKTON","state":"MA","postalCode":"02302","country":"US"},"position":{"longitude":-71.024638,"latitude":42.082543},"managingOrganization":{"reference":"Organization/c44f361c-2efb-3050-8f97-0354a12e2920","display":"SIGNATURE HEALTHCARE BROCKTON HOSPITAL"}}
{"resourceType":"Location","id":"931ad4b9-c17a-45cc-a90b-9978582bf3eb","meta":{"profile":["http://hl7.org/fhir/us/core/StructureDefinition/us-core-location"]},"status":"active","name":"HARRINGTON MEMORIAL HOSPITAL-1","telecom":[{"system":"phone","value":"5087659771"}],"address":{"line":["100 SOUTH STREET"],"city":"SOUTHBRIDGE","state":"MA","postalCode":"01550","country":"US"},"position":{"longitude":-72.03404,"latitude":42.059669},"managingOrganization":{"reference":"Organization/4bdaa4c2-c664-3089-aee2-7137abbad27f","display":"HARRINGTON MEMORIAL HOSPITAL-1"}}
{"resourceType":"Location","id":"1e0293bb-d629-499d-a45d-6e9ab2c2327a","meta":{"profile":["http://hl7.org/fhir/us/core/StructureDefinition/us-core-location"]},"status":"active","name":"PROMPT CARE WALK-IN CLINIC","telecom":[{"system":"phone","value":"781-306-6180"}],"address":{"line":["170 GOVERNORS AVENUE"],"city":"MEDFORD","state":"MA","postalCode":"2155","country":"US"},"position":{"longitude":-71.1113649,"latitude":42.4259086},"managingOrganization":{"reference":"Organization/90cf148c-69ed-3d33-aa86-b509c6b0b25f","display":"PROMPT CARE WALK-IN CLINIC"}}
{"resourceType":"Location","id":"5b26c21c-66bc-4060-8f4f-ccf2b2eefc3f","meta":{"profile":["http://hl7.org/fhir/us/core/StructureDefinition/us-core-location"]},"status":"active","name":"PCP136067","telecom":[{"system":"phone","value":"(555) 555-5555"}],"address":{"line":["163 N MAIN ST"],"city":"NORTH BROOKFIELD","state":"MA","postalCode":"01535-1400","country":"US"},"position":{"longitude":-72.06687600000001,"latitude":42.267564},"managingOrganization":{"reference":"Organization/586d90ae-7754-30c2-996b-9e62e75227d3","display":"PCP136067"}}
{"resourceType":"Location","id":"4b1a8b31-00ed-4d2d-960d-69aa2da138c9","meta":{"profile":["http://hl7.org/fhir/us/core/StructureDefinition/us-core-location"]},"status":"active","name":"HALLMARK HEALTH SYSTEM","telecom":[{"system":"phone","value":"7819793000"}],"address":{"line":["585 LEBANON STREET"],"city":"MELROSE","state":"MA","postalCode":"02176","country":"US"},"position":{"longitude":-71.05901899999998,"latitude":42.455723},"managingOrganization":{"reference":"Organization/d692e283-0833-3201-8e55-4f868a9c0736","display":"HALLMARK HEALTH SYSTEM"}}
{"resourceType":"Location","id":"610da266-fbe8-44b9-8e47-ea7e7307c36e","meta":{"profile":["http://hl7.org/fhir/us/core/StructureDefinition/us-core-location"]},"status":"active","name":"MASSACHUSETTS EYE AND EAR ASSOCIATES, INC","telecom":[{"system":"phone","value":"781-279-0971"}],"address":{"line":["41 MONTVALE AVE"],"city":"STONEHAM","state":"MA","postalCode":"02180-2445","country":"US"},"position":{"longitude":-71.097665,"latitude":42.474208000000004},"managingOrganization":{"reference":"Organization/7ec9e63e-1ab2-342e-bbf6-dc05513d8c7d","display":"MASSACHUSETTS EYE AND EAR ASSOCIATES, INC"}}
